{"stations":{"lastUpdate":"1352073475222","version":"2.0","station":[{"id":"1","name":"Jarvis St/Carleton st","terminalName":"E7055","lastCommWithServer":"1352073204029","lat":"43.66207","long":"-79.37617","installed":"true","locked":"false","installDate":null,"removalDate":null,"temporary":"false","public":"true","nbBikes":"5","nbEmptyDocks":"10","latestUpdateTime":"1352067922615"},{"id":"5","name":"Church St/ Alexander St","terminalName":"E7044","lastCommWithServer":"1352072667339","lat":"43.6636","long":"-79.3806","installed":"true","locked":"false","installDate":null,"removalDate":null,"temporary":"false","public":"true","nbBikes":"5","nbEmptyDocks":"10","latestUpdateTime":"1352072664957"},{"id":"6","name":"Gould/ Mutual","terminalName":"E7028","lastCommWithServer":"1352072697688","lat":"43.6582","long":"-79.3768","installed":"true","locked":"false","installDate":null,"removalDate":null,"temporary":"false","public":"true","nbBikes":"10","nbEmptyDocks":"20","latestUpdateTime":"1352069758927"},{"id":"7","name":"St George St / Bloor St W","terminalName":"H7002","lastCommWithServer":"1352072981847","lat":"43.667333","long":"-79.399429","installed":"true","locked":"false","installDate":null,"removalDate":null,"temporary":"false","public":"true","nbBikes":"5","nbEmptyDocks":"10","latestUpdateTime":"1352072580203"},{"id":"8","name":"Madison Ave / Bloor St W","terminalName":"H7003","lastCommWithServer":"1352073151407","lat":"43.667158","long":"-79.402761","installed":"true","locked":"false","installDate":null,"removalDate":null,"temporary":"false","public":"true","nbBikes":"3","nbEmptyDocks":"12","latestUpdateTime":"1352070659183"},{"id":"9","name":"King St W / Spadina Ave","terminalName":"B7010","lastCommWithServer":"1352073265873","lat":"43.645323","long":"-79.395003","installed":"true","locked":"false","installDate":null,"removalDate":null,"temporary":"false","public":"true","nbBikes":"7","nbEmptyDocks":"12","latestUpdateTime":"1352068616438"},{"id":"10","name":"Elizabeth St / Edward St","terminalName":"E7012","lastCommWithServer":"1352073038664","lat":"43.656152","long":"-79.385225","installed":"true","locked":"false","installDate":null,"removalDate":null,"temporary":"false","public":"true","nbBikes":"9","nbEmptyDocks":"6","latestUpdateTime":"1352066474476"},{"id":"11","name":"Scott St / The Esplanade","terminalName":"A7013","lastCommWithServer":"1352073398627","lat":"43.64656","long":"-79.375274","installed":"true","locked":"false","installDate":null,"removalDate":null,"temporary":"false","public":"true","nbBikes":"10","nbEmptyDocks":"7","latestUpdateTime":"1352066095475"},{"id":"12","name":"Ferry Ramp / Queens Quay W","terminalName":"A7016","lastCommWithServer":"1352073285091","lat":"43.640823","long":"-79.376265","installed":"true","locked":"false","installDate":null,"removalDate":null,"temporary":"false","public":"true","nbBikes":"11","nbEmptyDocks":"10","latestUpdateTime":"1352073282916"},{"id":"13","name":"Temperance St / Yonge St","terminalName":"C7019","lastCommWithServer":"1352073473968","lat":"43.650855","long":"-79.379492","installed":"true","locked":"false","installDate":null,"removalDate":null,"temporary":"false","public":"true","nbBikes":"12","nbEmptyDocks":"2","latestUpdateTime":"1352073029327"},{"id":"14","name":"Simcoe St / Queen St W","terminalName":"D7022","lastCommWithServer":"1352072995856","lat":"43.650858","long":"-79.387582","installed":"true","locked":"false","installDate":null,"removalDate":null,"temporary":"false","public":"true","nbBikes":"8","nbEmptyDocks":"3","latestUpdateTime":"1352072609044"},{"id":"15","name":"College St/ Borden","terminalName":"G7023","lastCommWithServer":"1352073249224","lat":"43.6571","long":"-79.4056","installed":"true","locked":"false","installDate":null,"removalDate":null,"temporary":"false","public":"true","nbBikes":"3","nbEmptyDocks":"8","latestUpdateTime":"1352073108948"},{"id":"16","name":"Huron St / Harbord St ","terminalName":"H7024","lastCommWithServer":"1352072752545","lat":"43.663762","long":"-79.399782","installed":"true","locked":"false","installDate":null,"removalDate":null,"temporary":"false","public":"true","nbBikes":"6","nbEmptyDocks":"13","latestUpdateTime":"1352072750745"},{"id":"17","name":"Jarvis St (Ted Rogers Way) / Bloor St E","terminalName":"G7025","lastCommWithServer":"1352073167154","lat":"43.671545","long":"-79.380526","installed":"true","locked":"false","installDate":null,"removalDate":null,"temporary":"false","public":"true","nbBikes":"15","nbEmptyDocks":"12","latestUpdateTime":"1352067684811"},{"id":"18","name":"Phoebe St / Spadina Ave","terminalName":"D7020","lastCommWithServer":"1352072968603","lat":"43.650033","long":"-79.396555","installed":"true","locked":"false","installDate":null,"removalDate":null,"temporary":"false","public":"true","nbBikes":"16","nbEmptyDocks":"23","latestUpdateTime":"1352071272339"},{"id":"19","name":"Beverly  Street / Dundas Street W.","terminalName":"G7027","lastCommWithServer":"1352073419081","lat":"43.652823","long":"-79.393388","installed":"true","locked":"false","installDate":null,"removalDate":null,"temporary":"false","public":"true","nbBikes":"19","nbEmptyDocks":"8","latestUpdateTime":"1352073416367"},{"id":"20","name":"Jarvis St / Isabella St","terminalName":"G7031","lastCommWithServer":"1352073017899","lat":"43.669192","long":"-79.379128","installed":"true","locked":"false","installDate":null,"removalDate":null,"temporary":"false","public":"true","nbBikes":"11","nbEmptyDocks":"12","latestUpdateTime":"1352071546617"},{"id":"21","name":"Church St / Bloor St E","terminalName":"G7034","lastCommWithServer":"1352073040053","lat":"43.671389","long":"-79.382919","installed":"true","locked":"false","installDate":null,"removalDate":null,"temporary":"false","public":"true","nbBikes":"8","nbEmptyDocks":"7","latestUpdateTime":"1352073037409"},{"id":"22","name":"Bathurst St/ Dundas St","terminalName":"C7037","lastCommWithServer":"1352073272710","lat":"43.6523","long":"-79.4058","installed":"true","locked":"false","installDate":null,"removalDate":null,"temporary":"false","public":"true","nbBikes":"11","nbEmptyDocks":"8","latestUpdateTime":"1352068321436"},{"id":"23","name":"Yonge St / Dundas Sq","terminalName":"E7038","lastCommWithServer":"1352073076768","lat":"43.656053","long":"-79.380904","installed":"true","locked":"false","installDate":null,"removalDate":null,"temporary":"false","public":"true","nbBikes":"5","nbEmptyDocks":"6","latestUpdateTime":"1352071626433"},{"id":"24","name":"Simcoe St / Dundas St W","terminalName":"F7039","lastCommWithServer":"1352072728187","lat":"43.653743","long":"-79.38882","installed":"true","locked":"false","installDate":null,"removalDate":null,"temporary":"false","public":"true","nbBikes":"12","nbEmptyDocks":"15","latestUpdateTime":"1352064873426"},{"id":"25","name":"Edward St / Yonge St","terminalName":"E7041","lastCommWithServer":"1352073229858","lat":"43.65702","long":"-79.382249","installed":"true","locked":"false","installDate":null,"removalDate":null,"temporary":"false","public":"true","nbBikes":"11","nbEmptyDocks":"12","latestUpdateTime":"1352072903458"},{"id":"26","name":"Sherbourne St/ Wellesley St","terminalName":"E7042","lastCommWithServer":"1352073396697","lat":"43.6673","long":"-79.374","installed":"true","locked":"false","installDate":null,"removalDate":null,"temporary":"false","public":"true","nbBikes":"9","nbEmptyDocks":"6","latestUpdateTime":"1352073207497"},{"id":"27","name":"Lower Simcoe St / Lakeshore Blvd W","terminalName":"B7043","lastCommWithServer":"1352073444692","lat":"43.640016","long":"-79.383186","installed":"true","locked":"false","installDate":null,"removalDate":null,"temporary":"false","public":"true","nbBikes":"11","nbEmptyDocks":"12","latestUpdateTime":"1352071753606"},{"id":"28","name":"Bond St / Queen St E","terminalName":"C7045","lastCommWithServer":"1352073169284","lat":"43.653236","long":"-79.376716","installed":"true","locked":"false","installDate":null,"removalDate":null,"temporary":"false","public":"true","nbBikes":"9","nbEmptyDocks":"2","latestUpdateTime":"1352073166827"},{"id":"29","name":"Wellesley St E. / Yonge St","terminalName":"G7051","lastCommWithServer":"1352072844372","lat":"43.664953","long":"-79.384423","installed":"true","locked":"false","installDate":null,"removalDate":null,"temporary":"false","public":"true","nbBikes":"6","nbEmptyDocks":"11","latestUpdateTime":"1352071152014"},{"id":"30","name":"Augusta Ave / Dundas Str W.","terminalName":"F7032","lastCommWithServer":"1352073181350","lat":"43.652175","long":"-79.400913","installed":"true","locked":"false","installDate":null,"removalDate":null,"temporary":"false","public":"true","nbBikes":"9","nbEmptyDocks":"5","latestUpdateTime":"1352070310473"},{"id":"31","name":"Metro Hall Plaza / Wellington St W","terminalName":"B7053","lastCommWithServer":"1352072733105","lat":"43.645916","long":"-79.388225","installed":"true","locked":"false","installDate":null,"removalDate":null,"temporary":"false","public":"true","nbBikes":"3","nbEmptyDocks":"14","latestUpdateTime":"1352072732167"},{"id":"32","name":"Church St / Monteith St","terminalName":"G7054","lastCommWithServer":"1352072659583","lat":"43.666754","long":"-79.380983","installed":"true","locked":"false","installDate":null,"removalDate":null,"temporary":"false","public":"true","nbBikes":"3","nbEmptyDocks":"12","latestUpdateTime":"1352070525897"},{"id":"33","name":"Simcoe St / Wellington St W","terminalName":"B7057","lastCommWithServer":"1352073074940","lat":"43.645533","long":"-79.3854","installed":"true","locked":"false","installDate":null,"removalDate":null,"temporary":"false","public":"true","nbBikes":"6","nbEmptyDocks":"17","latestUpdateTime":"1352067635437"},{"id":"34","name":"Yonge St / Grosvenor St","terminalName":"G7058","lastCommWithServer":"1352073042324","lat":"43.662915","long":"-79.383316","installed":"true","locked":"false","installDate":null,"removalDate":null,"temporary":"false","public":"true","nbBikes":"2","nbEmptyDocks":"5","latestUpdateTime":"1352071210737"},{"id":"35","name":"Bloor St / Brunswick Ave","terminalName":"H7061","lastCommWithServer":"1352073205406","lat":"43.665876","long":"-79.407224","installed":"true","locked":"false","installDate":null,"removalDate":null,"temporary":"false","public":"true","nbBikes":"18","nbEmptyDocks":"7","latestUpdateTime":"1352072357485"},{"id":"36","name":"Queens Park / Bloor St W","terminalName":"G7063","lastCommWithServer":"1352073314507","lat":"43.668327","long":"-79.39355","installed":"true","locked":"false","installDate":null,"removalDate":null,"temporary":"false","public":"true","nbBikes":"11","nbEmptyDocks":"7","latestUpdateTime":"1352072467624"},{"id":"37","name":"Dundas / Parliament","terminalName":"A7065","lastCommWithServer":"1352073215370","lat":"43.659575","long":"-79.365769","installed":"true","locked":"false","installDate":null,"removalDate":null,"temporary":"false","public":"true","nbBikes":"3","nbEmptyDocks":"8","latestUpdateTime":"1352070951451"},{"id":"38","name":"Willcocks St / St. George St","terminalName":"H7066","lastCommWithServer":"1352072906170","lat":"43.662237","long":"-79.397716","installed":"true","locked":"false","installDate":null,"removalDate":null,"temporary":"false","public":"true","nbBikes":"15","nbEmptyDocks":"2","latestUpdateTime":"1352069725227"},{"id":"39","name":"Yonge St / Harbour St","terminalName":"A7067","lastCommWithServer":"1352073235929","lat":"43.643795","long":"-79.375413","installed":"true","locked":"false","installDate":null,"removalDate":null,"temporary":"false","public":"true","nbBikes":"23","nbEmptyDocks":"16","latestUpdateTime":"1352072152038"},{"id":"40","name":"Dockside Dr / Queens Quay W","terminalName":"A7068","lastCommWithServer":"1352073201894","lat":"43.644264","long":"-79.36737","installed":"true","locked":"false","installDate":null,"removalDate":null,"temporary":"false","public":"true","nbBikes":"14","nbEmptyDocks":"21","latestUpdateTime":"1352068925200"},{"id":"41","name":"Queen St W / Spadina Ave","terminalName":"D7069","lastCommWithServer":"1352073138392","lat":"43.649147","long":"-79.395504","installed":"true","locked":"false","installDate":null,"removalDate":null,"temporary":"false","public":"true","nbBikes":"5","nbEmptyDocks":"6","latestUpdateTime":"1352070148807"},{"id":"42","name":"25 York Street (Menkes)","terminalName":"A7070","lastCommWithServer":"1352072767976","lat":"43.643292","long":"-79.380976","installed":"true","locked":"false","installDate":null,"removalDate":null,"temporary":"false","public":"true","nbBikes":"5","nbEmptyDocks":"4","latestUpdateTime":"1352071920442"},{"id":"43","name":"Queen / Vanauley","terminalName":"D7072","lastCommWithServer":"1352073331939","lat":"43.648535","long":"-79.398397","installed":"true","locked":"false","installDate":null,"removalDate":null,"temporary":"false","public":"true","nbBikes":"12","nbEmptyDocks":"3","latestUpdateTime":"1352071728391"},{"id":"44","name":"Spadina Ave / Sussex","terminalName":"H7074","lastCommWithServer":"1352072912468","lat":"43.664137","long":"-79.402496","installed":"true","locked":"false","installDate":null,"removalDate":null,"temporary":"false","public":"true","nbBikes":"13","nbEmptyDocks":"13","latestUpdateTime":"1352070889171"},{"id":"45","name":"Queens Quay W / Spadina Ave","terminalName":"B7075","lastCommWithServer":"1352073099741","lat":"43.637237","long":"-79.392888","installed":"true","locked":"false","installDate":null,"removalDate":null,"temporary":"false","public":"true","nbBikes":"15","nbEmptyDocks":"12","latestUpdateTime":"1352067127775"},{"id":"46","name":"York St / Queens Quay W","terminalName":"A7076","lastCommWithServer":"1352073160648","lat":"43.640248","long":"-79.380509","installed":"true","locked":"false","installDate":null,"removalDate":null,"temporary":"false","public":"true","nbBikes":"13","nbEmptyDocks":"18","latestUpdateTime":"1352073159535"},{"id":"47","name":"Granby St / Yonge St","terminalName":"E7077","lastCommWithServer":"1352072708919","lat":"43.660576","long":"-79.382389","installed":"true","locked":"false","installDate":null,"removalDate":null,"temporary":"false","public":"true","nbBikes":"4","nbEmptyDocks":"15","latestUpdateTime":"1352072707353"},{"id":"48","name":"Gerrard St E / Church St","terminalName":"E7079","lastCommWithServer":"1352073338754","lat":"43.659778","long":"-79.37978","installed":"true","locked":"false","installDate":null,"removalDate":null,"temporary":"false","public":"true","nbBikes":"10","nbEmptyDocks":"5","latestUpdateTime":"1352072492138"},{"id":"49","name":"Widmer St / King St W","terminalName":"D7017","lastCommWithServer":"1352073114142","lat":"43.647313","long":"-79.391549","installed":"true","locked":"false","installDate":null,"removalDate":null,"temporary":"false","public":"true","nbBikes":"14","nbEmptyDocks":"5","latestUpdateTime":"1352073113026"},{"id":"50","name":"Bremner Blvd / Rees St","terminalName":"B7018","lastCommWithServer":"1352072654196","lat":"43.641529","long":"-79.386741","installed":"true","locked":"false","installDate":null,"removalDate":null,"temporary":"false","public":"true","nbBikes":"11","nbEmptyDocks":"4","latestUpdateTime":"1352071807967"},{"id":"51","name":"Front St E / Scott St","terminalName":"A7000","lastCommWithServer":"1352073023552","lat":"43.647814","long":"-79.375055","installed":"true","locked":"false","installDate":null,"removalDate":null,"temporary":"false","public":"true","nbBikes":"2","nbEmptyDocks":"9","latestUpdateTime":"1352069682293"},{"id":"52","name":"Lower Jarvis St / The Esplanade","terminalName":"A7001","lastCommWithServer":"1352073099304","lat":"43.647992","long":"-79.370907","installed":"true","locked":"false","installDate":null,"removalDate":null,"temporary":"false","public":"true","nbBikes":"6","nbEmptyDocks":"9","latestUpdateTime":"1352071333196"},{"id":"53","name":"University Ave / Elm St","terminalName":"E7004","lastCommWithServer":"1352073229917","lat":"43.656518","long":"-79.389099","installed":"true","locked":"false","installDate":null,"removalDate":null,"temporary":"false","public":"true","nbBikes":"7","nbEmptyDocks":"4","latestUpdateTime":"1352072382642"},{"id":"54","name":"University Ave / King St W","terminalName":"C7005","lastCommWithServer":"1352073064608","lat":"43.648093","long":"-79.384749","installed":"true","locked":"false","installDate":null,"removalDate":null,"temporary":"false","public":"true","nbBikes":"9","nbEmptyDocks":"10","latestUpdateTime":"1352069416447"},{"id":"55","name":"Wellington St / Portland St","terminalName":"C7011","lastCommWithServer":"1352073022383","lat":"43.642982","long":"-79.399256","installed":"true","locked":"false","installDate":null,"removalDate":null,"temporary":"false","public":"true","nbBikes":"7","nbEmptyDocks":"4","latestUpdateTime":"1352072175693"},{"id":"56","name":"Sherbourne / Carlton (Allan Gardens)","terminalName":"C7014","lastCommWithServer":"1352072764051","lat":"43.663102","long":"-79.373181","installed":"true","locked":"false","installDate":null,"removalDate":null,"temporary":"false","public":"true","nbBikes":"6","nbEmptyDocks":"11","latestUpdateTime":"1352071300635"},{"id":"57","name":"King St W / Bay St","terminalName":"A7015","lastCommWithServer":"1352072836450","lat":"43.64852","long":"-79.380576","installed":"true","locked":"false","installDate":null,"removalDate":null,"temporary":"false","public":"true","nbBikes":"4","nbEmptyDocks":"11","latestUpdateTime":"1352072834928"},{"id":"58","name":"Bathurst / Lennox","terminalName":"F7035","lastCommWithServer":"1352073355401","lat":"43.663724","long":"-79.41052","installed":"true","locked":"false","installDate":null,"removalDate":null,"temporary":"false","public":"true","nbBikes":"15","nbEmptyDocks":"8","latestUpdateTime":"1352067031192"},{"id":"59","name":"Melinda St / Yonge St","terminalName":"A7036","lastCommWithServer":"1352072978270","lat":"43.648629","long":"-79.377748","installed":"true","locked":"false","installDate":null,"removalDate":null,"temporary":"false","public":"true","nbBikes":"4","nbEmptyDocks":"7","latestUpdateTime":"1352072651112"},{"id":"60","name":"Euclid/ Bloor","terminalName":"E7040","lastCommWithServer":"1352072719807","lat":"43.6643","long":"-79.415","installed":"true","locked":"false","installDate":null,"removalDate":null,"temporary":"false","public":"true","nbBikes":"10","nbEmptyDocks":"9","latestUpdateTime":"1352071872865"},{"id":"61","name":"Bay St / Albert St","terminalName":"C7021","lastCommWithServer":"1352073154999","lat":"43.653264","long":"-79.382458","installed":"true","locked":"false","installDate":null,"removalDate":null,"temporary":"false","public":"true","nbBikes":"12","nbEmptyDocks":"11","latestUpdateTime":"1352071881206"},{"id":"62","name":"Church st. / Dundas st. E","terminalName":"E7046","lastCommWithServer":"1352072971055","lat":"43.656652","long":"-79.377051","installed":"true","locked":"false","installDate":null,"removalDate":null,"temporary":"false","public":"true","nbBikes":"14","nbEmptyDocks":"9","latestUpdateTime":"1352068976649"},{"id":"63","name":"University Ave / Gerrard St W","terminalName":"E7047","lastCommWithServer":"1352073242889","lat":"43.657669","long":"-79.389784","installed":"true","locked":"false","installDate":null,"removalDate":null,"temporary":"false","public":"true","nbBikes":"7","nbEmptyDocks":"4","latestUpdateTime":"1352071610308"},{"id":"64","name":"Front St W / Bay St","terminalName":"A7048","lastCommWithServer":"1352073017747","lat":"43.646453","long":"-79.377037","installed":"true","locked":"false","installDate":null,"removalDate":null,"temporary":"false","public":"true","nbBikes":"17","nbEmptyDocks":"21","latestUpdateTime":"1352067785947"},{"id":"65","name":"Queen/ Portland","terminalName":"F7049","lastCommWithServer":"1352073115159","lat":"43.6476","long":"-79.4015","installed":"true","locked":"false","installDate":null,"removalDate":null,"temporary":"false","public":"true","nbBikes":"10","nbEmptyDocks":"1","latestUpdateTime":"1352073057585"},{"id":"66","name":"Richmond St E / Jarvis St","terminalName":"C7050","lastCommWithServer":"1352072853398","lat":"43.652634","long":"-79.374222","installed":"true","locked":"false","installDate":null,"removalDate":null,"temporary":"false","public":"true","nbBikes":"5","nbEmptyDocks":"5","latestUpdateTime":"1352066212551"},{"id":"67","name":"Front St W / Blue Jays Way","terminalName":"B7059","lastCommWithServer":"1352073453472","lat":"43.643473","long":"-79.390477","installed":"true","locked":"false","installDate":null,"removalDate":null,"temporary":"false","public":"true","nbBikes":"10","nbEmptyDocks":"5","latestUpdateTime":"1352073450488"},{"id":"68","name":"York St / Queen St E","terminalName":"C7060","lastCommWithServer":"1352073198329","lat":"43.651214","long":"-79.384624","installed":"true","locked":"false","installDate":null,"removalDate":null,"temporary":"false","public":"true","nbBikes":"10","nbEmptyDocks":"5","latestUpdateTime":"1352067018356"},{"id":"69","name":"University Ave / College St","terminalName":"E7062","lastCommWithServer":"1352073200889","lat":"43.659226","long":"-79.390213","installed":"true","locked":"false","installDate":null,"removalDate":null,"temporary":"false","public":"true","nbBikes":"6","nbEmptyDocks":"5","latestUpdateTime":"1352064552469"},{"id":"70","name":"Trinity/ Front (Distillery)","terminalName":"C7064","lastCommWithServer":"1352073402653","lat":"43.6513","long":"-79.3603","installed":"true","locked":"false","installDate":null,"removalDate":null,"temporary":"false","public":"true","nbBikes":"10","nbEmptyDocks":"13","latestUpdateTime":"1352071711900"},{"id":"71","name":"Bathurst/ Queens Quay (Island Airport)","terminalName":"D7071","lastCommWithServer":"1352072879328","lat":"43.6354","long":"-79.3984","installed":"true","locked":"false","installDate":null,"removalDate":null,"temporary":"false","public":"true","nbBikes":"20","nbEmptyDocks":"15","latestUpdateTime":"1352071187308"},{"id":"72","name":"Spadina / Bremner ","terminalName":"B7073","lastCommWithServer":"1352073220741","lat":"43.640821","long":"-79.392612","installed":"true","locked":"false","installDate":null,"removalDate":null,"temporary":"false","public":"true","nbBikes":"10","nbEmptyDocks":"5","latestUpdateTime":"1352067399977"},{"id":"73","name":"Bay St / College St","terminalName":"E7006","lastCommWithServer":"1352073240438","lat":"43.660422","long":"-79.385441","installed":"true","locked":"false","installDate":null,"removalDate":null,"temporary":"false","public":"true","nbBikes":"7","nbEmptyDocks":"4","latestUpdateTime":"1352073237428"},{"id":"74","name":"Bay St / Bloor St W","terminalName":"G7029","lastCommWithServer":"1352072875375","lat":"43.669429","long":"-79.389326","installed":"true","locked":"false","installDate":null,"removalDate":null,"temporary":"false","public":"true","nbBikes":"9","nbEmptyDocks":"2","latestUpdateTime":"1352072873039"},{"id":"75","name":"Wellington St W / Bay St","terminalName":"A7052","lastCommWithServer":"1352073204397","lat":"43.647331","long":"-79.379673","installed":"true","locked":"false","installDate":null,"removalDate":null,"temporary":"false","public":"true","nbBikes":"13","nbEmptyDocks":"14","latestUpdateTime":"1352071511916"},{"id":"76","name":"King St E / Jarvis St","terminalName":"A7009","lastCommWithServer":"1352072745425","lat":"43.650325","long":"-79.372287","installed":"true","locked":"false","installDate":null,"removalDate":null,"temporary":"false","public":"true","nbBikes":"10","nbEmptyDocks":"1","latestUpdateTime":"1352064492542"},{"id":"77","name":"College St / Huron St","terminalName":"F7007","lastCommWithServer":"1352073055255","lat":"43.658148","long":"-79.398167","installed":"true","locked":"false","installDate":null,"removalDate":null,"temporary":"false","public":"true","nbBikes":"9","nbEmptyDocks":"2","latestUpdateTime":"1352070730247"},{"id":"78","name":"College/ Major","terminalName":"F7078","lastCommWithServer":"1352073147597","lat":"43.6576","long":"-79.4032","installed":"true","locked":"false","installDate":null,"removalDate":null,"temporary":"false","public":"true","nbBikes":"7","nbEmptyDocks":"2","latestUpdateTime":"1352072921789"},{"id":"79","name":"Bay St / St Joseph St","terminalName":"G7026","lastCommWithServer":"1352073160370","lat":"43.665745","long":"-79.38787","installed":"true","locked":"false","installDate":null,"removalDate":null,"temporary":"false","public":"true","nbBikes":"9","nbEmptyDocks":"10","latestUpdateTime":"1352070851946"},{"id":"80","name":"Bay St / Wellesley St W","terminalName":"G7030","lastCommWithServer":"1352073148189","lat":"43.664088","long":"-79.387095","installed":"true","locked":"false","installDate":null,"removalDate":null,"temporary":"false","public":"true","nbBikes":"17","nbEmptyDocks":"18","latestUpdateTime":"1352065718941"},{"id":"81","name":"Princess Ave / King St","terminalName":"G7033","lastCommWithServer":"1352072667145","lat":"43.652123","long":"-79.367139","installed":"true","locked":"false","installDate":null,"removalDate":null,"temporary":"false","public":"true","nbBikes":"2","nbEmptyDocks":"8","latestUpdateTime":"1352071820490"},{"id":"82","name":"Parliament/Gerrard","terminalName":"G7056","lastCommWithServer":"1352072800136","lat":"43.661149","long":"-79.366648","installed":"true","locked":"false","installDate":null,"removalDate":null,"temporary":"false","public":"true","nbBikes":"25","nbEmptyDocks":"2","latestUpdateTime":"1352068282236"},{"id":"83","name":"Wellesley St W / Queens Park Cres W","terminalName":"H7008","lastCommWithServer":"1352072854190","lat":"43.66333","long":"-79.392891","installed":"true","locked":"false","installDate":null,"removalDate":null,"temporary":"false","public":"true","nbBikes":"10","nbEmptyDocks":"9","latestUpdateTime":"1352072852614"}]}}